City_ID,City,Country,Lat,Lng,Max Temp,Humidity,Cloudiness,Wind Speed,Current Description,Date
0,Auki,SB,-8.7676,160.7034,78.64,79,27,4.12,scattered clouds,2021-11-06 16:38:02
1,Georgetown,MY,5.4112,100.3354,80.53,89,40,1.99,scattered clouds,2021-11-06 16:38:03
2,Aras,ES,42.5617,-2.356,45.03,70,14,10.4,few clouds,2021-11-06 16:38:03
3,Nishihara,JP,26.1842,127.7558,75.25,83,75,10.36,broken clouds,2021-11-06 16:38:03
4,La Ronge,CA,55.1001,-105.2842,37.65,93,90,3.44,light intensity drizzle,2021-11-06 16:38:04
5,Kruisfontein,ZA,-34.0033,24.7314,62.89,69,96,4.52,overcast clouds,2021-11-06 16:38:04
6,Cape Town,ZA,-33.9258,18.4232,64.81,57,20,3.0,few clouds,2021-11-06 16:34:45
7,Taoudenni,ML,22.6783,-3.9836,87.94,13,0,7.36,clear sky,2021-11-06 16:38:05
8,Carnarvon,AU,-24.8667,113.6333,64.47,77,40,21.85,scattered clouds,2021-11-06 16:36:51
9,Yulara,AU,-25.2406,130.9889,69.64,83,90,3.44,overcast clouds,2021-11-06 16:38:05
10,Klaksvik,FO,62.2266,-6.589,49.12,98,100,27.09,overcast clouds,2021-11-06 16:38:06
11,Narsaq,GL,60.9167,-46.05,32.22,90,100,9.84,overcast clouds,2021-11-06 16:38:06
12,Meulaboh,ID,4.1363,96.1285,75.36,94,100,4.88,very heavy rain,2021-11-06 16:38:06
13,Davlekanovo,RU,54.2215,55.0343,36.95,28,100,22.01,light rain,2021-11-06 16:38:07
14,Ushuaia,AR,-54.8,-68.3,49.66,50,75,16.11,broken clouds,2021-11-06 16:37:47
15,Rikitea,PF,-23.1203,-134.9692,75.18,81,100,16.49,overcast clouds,2021-11-06 16:38:07
16,Tasiilaq,GL,65.6145,-37.6368,26.76,70,76,7.36,broken clouds,2021-11-06 16:38:08
17,Machiques,VE,10.0644,-72.545,87.85,61,36,4.32,scattered clouds,2021-11-06 16:38:08
18,Busselton,AU,-33.65,115.3333,46.09,82,0,10.04,clear sky,2021-11-06 16:38:08
19,Monrovia,LR,6.3005,-10.7969,76.77,74,39,9.37,light rain,2021-11-06 16:38:09
20,Hamilton,US,39.1834,-84.5333,55.98,52,1,1.01,clear sky,2021-11-06 16:38:06
21,Jamestown,US,42.097,-79.2353,48.52,51,1,5.99,clear sky,2021-11-06 16:36:14
22,Punta Arenas,CL,-53.15,-70.9167,53.71,62,75,6.91,broken clouds,2021-11-06 16:38:09
23,Geraldton,AU,-28.7667,114.6,61.21,72,23,16.11,few clouds,2021-11-06 16:38:10
24,Atar,MR,20.5169,-13.0499,91.02,16,0,9.1,clear sky,2021-11-06 16:38:10
25,Albany,US,42.6001,-73.9662,50.31,62,16,1.97,few clouds,2021-11-06 16:34:47
26,Chato,TZ,-2.6378,31.7669,71.29,73,100,4.36,overcast clouds,2021-11-06 16:38:11
27,Caravelas,BR,-17.7125,-39.2481,80.38,62,82,9.48,broken clouds,2021-11-06 16:38:11
28,Kodiak,US,57.79,-152.4072,33.31,69,75,14.97,broken clouds,2021-11-06 16:38:11
29,Tiznit,MA,29.5833,-9.5,66.24,46,0,7.0,clear sky,2021-11-06 16:38:12
30,Varnamo,SE,57.186,14.04,50.76,94,100,5.01,overcast clouds,2021-11-06 16:38:12
31,Las Varas,MX,21.1667,-105.1667,81.59,59,1,3.53,clear sky,2021-11-06 16:38:13
32,Hilo,US,19.7297,-155.09,75.27,72,1,8.05,clear sky,2021-11-06 16:38:13
33,Hobart,AU,-42.8794,147.3294,57.06,70,90,3.0,overcast clouds,2021-11-06 16:38:14
34,East London,ZA,-33.0153,27.9116,68.94,68,40,9.22,scattered clouds,2021-11-06 16:38:14
35,Kavieng,PG,-2.5744,150.7967,83.23,74,74,16.08,broken clouds,2021-11-06 16:38:14
36,Avera,US,33.194,-82.5271,50.76,49,100,14.99,overcast clouds,2021-11-06 16:38:15
37,Argelia,CO,2.2556,-77.2488,74.84,78,97,0.6,light rain,2021-11-06 16:38:15
38,Portland,US,45.5234,-122.6762,50.09,89,75,1.99,broken clouds,2021-11-06 16:35:35
39,Leningradskiy,RU,69.3833,178.4167,-12.28,88,2,5.41,clear sky,2021-11-06 16:38:15
40,Prince Rupert,CA,54.3161,-130.3201,38.89,87,100,8.05,light rain,2021-11-06 16:38:16
41,Itupiranga,BR,-5.1347,-49.3267,82.72,73,99,3.27,moderate rain,2021-11-06 16:38:16
42,Ribeira Grande,PT,38.5167,-28.7,72.0,83,40,24.16,scattered clouds,2021-11-06 16:38:16
43,Lensk,RU,60.7253,114.9278,18.99,93,100,8.88,light snow,2021-11-06 16:38:17
44,Vila Velha,BR,-20.3297,-40.2925,78.75,69,75,5.99,broken clouds,2021-11-06 16:38:17
45,Mataura,NZ,-46.1927,168.8643,50.49,98,66,0.89,broken clouds,2021-11-06 16:38:17
46,Nikolskoye,RU,59.7035,30.7861,39.87,90,63,6.26,broken clouds,2021-11-06 16:38:18
47,Castro,BR,-24.7911,-50.0119,76.82,69,54,4.47,broken clouds,2021-11-06 16:37:42
48,Dovolnoye,RU,54.4958,79.6671,28.65,95,100,12.77,overcast clouds,2021-11-06 16:38:18
49,Trairi,BR,-3.2778,-39.2689,88.3,58,45,12.21,scattered clouds,2021-11-06 16:37:25
50,Mahanoro,MG,-19.9,48.8,73.51,89,40,1.9,light rain,2021-11-06 16:38:19
51,Waddan,LY,29.1614,16.139,80.17,20,7,11.21,clear sky,2021-11-06 16:38:19
52,Boa Vista,BR,2.8197,-60.6733,89.58,51,75,10.36,broken clouds,2021-11-06 16:34:16
53,Coffs Harbour,AU,-30.3,153.1333,66.16,85,40,10.36,scattered clouds,2021-11-06 16:38:20
54,Pochutla,MX,15.7432,-96.4661,85.82,53,79,4.99,broken clouds,2021-11-06 16:38:20
55,Porto Belo,BR,-27.1578,-48.5531,75.63,80,98,5.08,overcast clouds,2021-11-06 16:38:20
56,Saldanha,ZA,-33.0117,17.9442,64.45,69,99,17.83,overcast clouds,2021-11-06 16:38:21
57,Bluff,NZ,-46.6,168.3333,50.81,86,78,4.03,broken clouds,2021-11-06 16:38:21
58,Kaitangata,NZ,-46.2817,169.8464,45.93,80,81,3.27,broken clouds,2021-11-06 16:38:22
59,Tiksi,RU,71.6872,128.8694,-4.72,93,72,12.57,broken clouds,2021-11-06 16:38:22
60,Qaanaaq,GL,77.484,-69.3632,8.22,72,99,7.92,overcast clouds,2021-11-06 16:38:22
61,Laukaa,RU,58.7372,29.8453,39.61,86,92,7.87,overcast clouds,2021-11-06 16:38:23
62,Krasnokamensk,RU,50.0979,118.0369,15.13,48,0,6.76,clear sky,2021-11-06 16:38:23
63,Kapaa,US,22.0752,-159.319,75.52,80,90,12.66,light rain,2021-11-06 16:38:23
64,Morgan City,US,29.6994,-91.2068,64.0,82,20,5.75,few clouds,2021-11-06 16:38:24
65,Mahasamund,IN,21.1,82.1,71.87,57,6,3.6,clear sky,2021-11-06 16:38:24
66,Pearl City,US,21.3972,-157.9733,76.82,74,40,15.01,scattered clouds,2021-11-06 16:37:00
67,New Norfolk,AU,-42.7826,147.0587,56.7,59,84,1.99,broken clouds,2021-11-06 16:38:24
68,Padang,ID,-0.9492,100.3543,75.25,91,100,4.92,overcast clouds,2021-11-06 16:38:25
69,Norman Wells,CA,65.282,-126.8329,21.24,93,75,3.44,broken clouds,2021-11-06 16:38:25
70,Hithadhoo,MV,-0.6,73.0833,82.4,75,100,13.24,overcast clouds,2021-11-06 16:38:25
71,Comodoro Rivadavia,AR,-45.8667,-67.5,84.06,11,0,16.11,clear sky,2021-11-06 16:38:26
72,Araouane,ML,18.9048,-3.5265,91.89,14,70,8.05,broken clouds,2021-11-06 16:38:26
73,Nalut,LY,30.3333,10.85,77.45,19,90,10.96,overcast clouds,2021-11-06 16:38:26
74,Totness,SR,5.8833,-56.3167,78.67,90,97,8.32,overcast clouds,2021-11-06 16:38:27
75,Ponta Do Sol,PT,32.6667,-17.1,71.13,47,15,6.78,few clouds,2021-11-06 16:38:27
76,Jacareacanga,BR,-6.2222,-57.7528,87.64,55,94,5.19,overcast clouds,2021-11-06 16:38:28
77,Port Alfred,ZA,-33.5906,26.891,63.36,81,100,4.94,overcast clouds,2021-11-06 16:38:28
78,Usoke,TZ,-5.1667,32.35,79.34,21,94,6.82,overcast clouds,2021-11-06 16:38:28
79,Porto Novo,BJ,6.4965,2.6036,84.02,74,99,7.56,overcast clouds,2021-11-06 16:38:29
80,Torbay,CA,47.6666,-52.7314,41.29,81,75,17.27,light rain,2021-11-06 16:38:29
81,Bredasdorp,ZA,-34.5322,20.0403,61.92,51,94,9.22,overcast clouds,2021-11-06 16:38:29
82,Vaini,TO,-21.2,-175.2,75.36,88,20,5.75,few clouds,2021-11-06 16:38:29
83,Komsomolskiy,UZ,40.4272,71.7189,38.12,60,75,4.61,haze,2021-11-06 16:38:30
84,Souillac,MU,-20.5167,57.5167,76.35,83,40,11.5,scattered clouds,2021-11-06 16:38:30
85,Naze,JP,28.3667,129.4833,66.96,88,99,35.01,overcast clouds,2021-11-06 16:38:31
86,Snasa,NO,64.2457,12.3778,33.78,92,37,3.65,scattered clouds,2021-11-06 16:38:31
87,Cayenne,GF,4.9333,-52.3333,86.04,80,20,7.0,few clouds,2021-11-06 16:38:32
88,Bandundu,CD,-3.3167,17.3667,76.3,88,96,3.0,light rain,2021-11-06 16:38:32
89,Codrington,AU,-38.2667,141.9667,51.93,73,100,9.57,overcast clouds,2021-11-06 16:38:32
90,Dergachi,RU,51.2328,48.7659,42.98,34,100,19.64,overcast clouds,2021-11-06 16:38:33
91,Dukat,RU,62.55,155.55,13.87,92,99,7.27,overcast clouds,2021-11-06 16:38:33
92,Puerto Ayora,EC,-0.7393,-90.3518,76.96,70,70,10.94,broken clouds,2021-11-06 16:38:33
93,Ornskoldsvik,SE,63.2909,18.7153,37.22,87,3,10.36,clear sky,2021-11-06 16:38:34
94,Beringovskiy,RU,63.05,179.3167,13.03,86,100,8.52,overcast clouds,2021-11-06 16:38:34
95,Galesburg,US,40.9478,-90.3712,57.02,62,1,1.01,clear sky,2021-11-06 16:38:34
96,Concepcion Del Uruguay,AR,-32.4825,-58.2372,72.99,51,34,4.0,scattered clouds,2021-11-06 16:38:35
97,Luderitz,NA,-26.6481,15.1594,65.52,61,100,25.41,overcast clouds,2021-11-06 16:38:35
98,Sarahan,IN,31.5167,77.8,44.11,46,0,6.98,clear sky,2021-11-06 16:38:35
99,Coihaique,CL,-45.5752,-72.0662,66.81,30,0,10.36,clear sky,2021-11-06 16:38:36
100,Kidal,ML,18.4411,1.4078,93.06,11,5,4.12,clear sky,2021-11-06 16:38:36
101,Tutoia,BR,-2.7619,-42.2744,91.38,64,58,11.07,broken clouds,2021-11-06 16:38:36
102,Jega,NG,12.2175,4.3792,90.93,16,57,7.18,broken clouds,2021-11-06 16:38:37
103,Ilulissat,GL,69.2167,-51.1,19.42,49,75,17.27,broken clouds,2021-11-06 16:38:37
104,Lompoc,US,34.6391,-120.4579,59.92,90,90,4.61,fog,2021-11-06 16:38:37
105,Saskylakh,RU,71.9167,114.0833,7.54,90,100,15.3,overcast clouds,2021-11-06 16:38:38
106,Lagoa,PT,39.05,-27.9833,68.23,83,100,27.87,overcast clouds,2021-11-06 16:38:38
107,Katsuura,JP,35.1333,140.3,60.12,74,100,10.83,light rain,2021-11-06 16:38:39
108,Chegem Vtoroy,RU,43.5958,43.5994,48.02,93,90,1.99,overcast clouds,2021-11-06 16:38:39
109,Olafsvik,IS,64.8945,-23.7142,35.38,89,100,22.17,light rain,2021-11-06 16:38:39
110,Mbandaka,CD,0.0487,18.2603,73.96,92,90,3.78,moderate rain,2021-11-06 16:38:40
111,Avarua,CK,-21.2078,-159.775,71.65,73,75,4.61,broken clouds,2021-11-06 16:38:40
112,Pisco,PE,-13.7,-76.2167,70.02,82,0,10.36,clear sky,2021-11-06 16:38:40
113,Pringsewu,ID,-5.3582,104.9744,74.53,95,99,3.4,overcast clouds,2021-11-06 16:38:41
114,Saint George,US,37.1041,-113.5841,70.54,54,1,4.61,clear sky,2021-11-06 16:38:41
115,Atlantic City,US,39.3643,-74.4229,57.24,54,75,12.66,broken clouds,2021-11-06 16:37:58
116,Fare,PF,-16.7,-151.0167,78.98,72,27,5.64,light rain,2021-11-06 16:38:42
117,Tsubata,JP,36.6667,136.7333,46.33,82,80,5.77,broken clouds,2021-11-06 16:38:42
118,Anadyr,RU,64.75,177.4833,10.9,79,90,11.18,light shower snow,2021-11-06 16:38:42
119,Atuona,PF,-9.8,-139.0333,77.99,75,39,16.87,scattered clouds,2021-11-06 16:38:43
120,Launceston,AU,-41.45,147.1667,58.64,97,90,1.01,overcast clouds,2021-11-06 16:38:43
121,Chokurdakh,RU,70.6333,147.9167,4.87,95,100,8.34,overcast clouds,2021-11-06 16:38:43
122,Neftegorsk,RU,52.802,51.166,40.55,39,100,23.82,overcast clouds,2021-11-06 16:38:44
123,Kieta,PG,-6.2167,155.6333,79.34,80,82,4.38,broken clouds,2021-11-06 16:38:44
124,Sao Filipe,CV,14.8961,-24.4956,80.94,69,33,10.0,scattered clouds,2021-11-06 16:38:44
125,Sept-Iles,CA,50.2001,-66.3821,45.12,68,75,10.0,broken clouds,2021-11-06 16:38:44
126,Abnub,EG,27.2696,31.1511,82.62,35,0,7.36,clear sky,2021-11-06 16:38:45
127,Santa Ines,BR,-3.6667,-45.38,91.26,45,72,6.06,broken clouds,2021-11-06 16:38:45
128,Longyearbyen,SJ,78.2186,15.6401,21.04,63,75,11.5,broken clouds,2021-11-06 16:38:46
129,Biak,ID,-0.9131,122.8766,76.71,84,76,0.65,broken clouds,2021-11-06 16:38:46
130,Saint-Philippe,RE,-21.3585,55.7679,76.59,79,47,8.68,scattered clouds,2021-11-06 16:38:47
131,Cabo San Lucas,MX,22.8909,-109.9124,83.52,53,58,1.66,broken clouds,2021-11-06 16:38:47
132,Laguna,US,38.421,-121.4238,59.65,92,1,1.01,clear sky,2021-11-06 16:38:47
133,Wanning,CN,18.8003,110.3967,75.34,85,15,2.8,few clouds,2021-11-06 16:38:48
134,Saurimo,AO,-9.6608,20.3916,76.15,51,100,2.57,overcast clouds,2021-11-06 16:38:48
135,Victoria,HK,22.2855,114.1577,79.32,84,17,1.01,light rain,2021-11-06 16:37:15
136,Kalmunai,LK,7.4167,81.8167,79.34,82,98,3.47,overcast clouds,2021-11-06 16:38:49
137,Waipawa,NZ,-41.4122,175.5153,55.02,98,100,2.75,overcast clouds,2021-11-06 16:38:49
138,Seguin,US,29.5688,-97.9647,64.8,64,1,1.01,clear sky,2021-11-06 16:36:13
139,Verkh-Usugli,RU,52.7,115.1667,10.72,84,22,3.47,few clouds,2021-11-06 16:38:50
140,Berdigestyakh,RU,62.0989,126.6992,8.94,95,99,6.62,overcast clouds,2021-11-06 16:38:50
141,Nyurba,RU,63.2842,118.3319,10.89,97,100,4.09,overcast clouds,2021-11-06 16:38:50
142,Berlin,DE,52.5244,13.4105,51.1,79,75,11.01,broken clouds,2021-11-06 16:38:15
143,Pevek,RU,69.7008,170.3133,-5.03,89,90,7.65,overcast clouds,2021-11-06 16:38:51
144,Moose Factory,CA,51.2585,-80.6094,50.0,62,1,17.27,clear sky,2021-11-06 16:38:51
145,Vestmannaeyjar,IS,63.4427,-20.2734,40.19,87,90,18.41,overcast clouds,2021-11-06 16:38:52
146,Alice Springs,AU,-23.7,133.8833,69.35,94,75,5.75,broken clouds,2021-11-06 16:38:52
147,Soe,ID,-9.8607,124.284,69.58,90,29,3.0,scattered clouds,2021-11-06 16:38:52
148,Sulmona,IT,42.0479,13.9291,59.07,98,100,3.44,overcast clouds,2021-11-06 16:38:53
149,Mus,TR,39.0,41.75,48.99,47,0,4.34,clear sky,2021-11-06 16:38:53
150,Chuy,UY,-33.6971,-53.4616,66.81,53,97,14.43,overcast clouds,2021-11-06 16:38:53
151,Lebu,CL,-37.6167,-73.65,58.39,76,44,12.06,scattered clouds,2021-11-06 16:38:53
152,Lethem,GY,3.3803,-59.7968,94.03,41,98,9.6,overcast clouds,2021-11-06 16:38:54
153,Hobyo,SO,5.3505,48.5268,81.25,65,23,11.43,few clouds,2021-11-06 16:38:54
154,Olinda,BR,-8.0089,-34.8553,87.53,58,20,11.5,few clouds,2021-11-06 16:38:54
155,Esperance,AU,-33.8667,121.9,49.84,74,0,4.59,clear sky,2021-11-06 16:38:55
156,Cidreira,BR,-30.1811,-50.2056,70.61,82,86,12.03,overcast clouds,2021-11-06 16:38:55
157,Ostrovnoy,RU,68.0531,39.5131,35.35,100,100,14.07,overcast clouds,2021-11-06 16:38:55
158,Kalety,PL,50.5627,18.8926,46.27,70,20,4.61,few clouds,2021-11-06 16:38:56
159,Sao Geraldo Do Araguaia,BR,-6.4006,-48.555,90.82,55,92,2.8,light rain,2021-11-06 16:38:56
160,Provideniya,RU,64.3833,-173.3,7.88,81,6,6.49,clear sky,2021-11-06 16:38:57
161,Varberg,SE,57.1056,12.2508,51.24,93,100,19.24,moderate rain,2021-11-06 16:38:57
162,Tuktoyaktuk,CA,69.4541,-133.0374,21.2,79,90,13.8,overcast clouds,2021-11-06 16:38:57
163,Siyabuswa,ZA,-25.1132,29.0445,79.88,43,69,10.47,light rain,2021-11-06 16:38:58
164,Agadez,NE,19.75,10.25,82.54,11,3,6.04,clear sky,2021-11-06 16:38:58
165,Saint-Paul,RE,-21.0096,55.2707,77.11,95,5,1.99,clear sky,2021-11-06 16:38:59
166,Tuatapere,NZ,-46.1333,167.6833,50.83,93,66,1.14,broken clouds,2021-11-06 16:38:59
167,Paso De Los Toros,UY,-32.8167,-56.5167,68.34,51,12,11.77,few clouds,2021-11-06 16:38:59
168,Hermanus,ZA,-34.4187,19.2345,63.9,63,62,8.23,broken clouds,2021-11-06 16:38:59
169,Dikson,RU,73.5069,80.5464,15.91,92,100,15.48,overcast clouds,2021-11-06 16:39:00
170,San Juan,AR,-31.5375,-68.5364,72.3,22,2,2.77,clear sky,2021-11-06 16:39:00
171,Paamiut,GL,61.994,-49.6678,30.15,84,100,9.15,light snow,2021-11-06 16:39:01
172,Gat,IL,31.61,34.7642,77.68,55,47,4.81,scattered clouds,2021-11-06 16:35:01
173,Rabaul,PG,-4.1967,152.1721,78.64,76,58,6.78,broken clouds,2021-11-06 16:39:01
174,Kostomuksha,RU,64.571,30.5767,33.93,81,100,8.01,overcast clouds,2021-11-06 16:39:02
175,Qandala,SO,11.472,49.8728,80.35,56,9,6.22,clear sky,2021-11-06 16:39:03
176,Arraial Do Cabo,BR,-22.9661,-42.0278,76.96,60,20,13.8,few clouds,2021-11-06 16:39:03
177,Vila Franca Do Campo,PT,37.7167,-25.4333,70.21,74,49,15.03,scattered clouds,2021-11-06 16:39:04
178,Barrow,US,71.2906,-156.7887,12.22,85,1,17.27,clear sky,2021-11-06 16:34:44
179,Sakakah,SA,29.9697,40.2064,74.77,28,0,8.88,clear sky,2021-11-06 16:39:05
180,Cockburn Town,TC,21.4612,-71.1419,82.94,76,32,17.54,scattered clouds,2021-11-06 16:39:05
181,Kushima,JP,31.4583,131.2333,62.29,88,100,8.28,overcast clouds,2021-11-06 16:39:06
182,Pimenteiras,BR,-6.2453,-41.4192,94.32,36,74,9.64,broken clouds,2021-11-06 16:39:06
183,Butaritari,KI,3.0707,172.7902,81.79,71,100,14.97,overcast clouds,2021-11-06 16:39:07
184,Coahuayana,MX,18.7333,-103.6833,86.79,59,96,1.79,overcast clouds,2021-11-06 16:39:07
185,Grindavik,IS,63.8424,-22.4338,37.35,93,75,14.97,light intensity drizzle,2021-11-06 16:39:07
186,Samarai,PG,-10.6167,150.6667,82.2,77,53,13.58,broken clouds,2021-11-06 16:39:08
187,Karaton,ID,-6.3424,106.1045,77.16,93,100,4.63,overcast clouds,2021-11-06 16:39:08
188,Santa Rita,BR,-7.1139,-34.9781,88.47,58,75,11.5,broken clouds,2021-11-06 16:39:08
189,Aklavik,CA,68.2191,-135.0107,17.6,86,75,10.36,mist,2021-11-06 16:39:09
190,Nanortalik,GL,60.1432,-45.2371,33.94,82,100,9.15,overcast clouds,2021-11-06 16:39:09
191,Berlevag,NO,70.8578,29.0864,34.02,64,100,21.12,overcast clouds,2021-11-06 16:39:09
192,Bambous Virieux,MU,-20.3428,57.7575,76.21,83,40,11.5,scattered clouds,2021-11-06 16:39:09
193,Isangel,VU,-19.55,169.2667,72.05,85,100,8.16,overcast clouds,2021-11-06 16:39:10
194,Tres Arroyos,AR,-38.3739,-60.2798,73.65,17,43,8.52,scattered clouds,2021-11-06 16:39:10
195,Khatanga,RU,71.9667,102.5,11.32,93,100,13.8,overcast clouds,2021-11-06 16:39:10
196,Yuxia,CN,34.0615,108.6291,34.41,96,100,6.69,snow,2021-11-06 16:39:11
197,Weihe,CN,32.9952,105.3247,28.11,63,100,11.97,overcast clouds,2021-11-06 16:39:11
198,Bandarbeyla,SO,9.4942,50.8122,77.61,72,33,12.17,scattered clouds,2021-11-06 16:39:12
199,Kanniyakumari,IN,8.0833,77.5667,79.81,84,95,15.19,overcast clouds,2021-11-06 16:39:12
200,Maarianhamina,AX,60.0973,19.9348,40.86,70,20,10.36,few clouds,2021-11-06 16:39:12
201,Wattegama,LK,6.7989,81.4808,74.25,98,100,1.92,moderate rain,2021-11-06 16:39:13
202,Bonthe,SL,7.5264,-12.505,83.3,74,49,6.02,scattered clouds,2021-11-06 16:39:13
203,Rehoboth,NA,-23.3167,17.0833,84.02,12,50,21.39,scattered clouds,2021-11-06 16:39:13
204,Fortuna,US,40.5982,-124.1573,51.42,71,90,1.01,overcast clouds,2021-11-06 16:38:51
205,Macamic,CA,48.7502,-78.9996,48.43,67,89,14.54,overcast clouds,2021-11-06 16:39:14
206,Morant Bay,JM,17.8815,-76.4093,87.62,79,100,6.91,overcast clouds,2021-11-06 16:39:14
207,Deputatskiy,RU,69.3,139.9,-0.74,84,100,18.99,overcast clouds,2021-11-06 16:39:15
208,Vostok,RU,46.4856,135.8833,16.7,88,100,3.29,overcast clouds,2021-11-06 16:39:15
209,Mpongwe,ZM,-13.5091,28.155,80.64,17,8,6.96,clear sky,2021-11-06 16:39:15
210,Richmond West,US,25.6105,-80.4297,75.02,75,90,14.97,overcast clouds,2021-11-06 16:39:16
211,Kavaratti,IN,10.5669,72.642,82.17,73,6,12.71,clear sky,2021-11-06 16:39:16
212,Asau,RO,46.4333,26.4,49.95,56,100,0.67,overcast clouds,2021-11-06 16:39:16
213,Faanui,PF,-16.4833,-151.75,79.9,69,19,5.06,few clouds,2021-11-06 16:39:17
214,Soddy-Daisy,US,35.2359,-85.1908,57.49,66,48,6.6,scattered clouds,2021-11-06 16:39:17
215,Mayor Pablo Lagerenza,PY,-19.9309,-60.7718,59.76,67,100,10.31,overcast clouds,2021-11-06 16:39:17
216,Areka,ET,7.0667,37.7,62.37,74,20,5.37,few clouds,2021-11-06 16:39:18
217,Kroya,ID,-7.6331,109.2461,77.58,91,100,5.28,overcast clouds,2021-11-06 16:39:18
218,Batagay,RU,67.6333,134.6333,0.18,97,100,3.58,overcast clouds,2021-11-06 16:39:18
219,Saint-Augustin,CA,51.226,-58.6502,41.27,45,24,12.64,few clouds,2021-11-06 16:39:19
220,Cap-Aux-Meules,CA,47.3821,-61.8597,48.25,66,20,20.71,few clouds,2021-11-06 16:39:19
221,Rocha,UY,-34.4833,-54.3333,65.88,55,100,14.2,overcast clouds,2021-11-06 16:39:19
222,Diamantino,BR,-14.4086,-56.4461,75.36,88,100,7.31,overcast clouds,2021-11-06 16:39:20
223,Karratha,AU,-20.7377,116.8463,77.38,67,49,14.03,scattered clouds,2021-11-06 16:39:20
224,Kahului,US,20.8947,-156.47,78.84,71,20,12.66,few clouds,2021-11-06 16:39:21
225,Kiunga,PG,-6.1219,141.2906,73.4,99,100,1.7,overcast clouds,2021-11-06 16:39:21
226,Cuxhaven,DE,53.8718,8.6909,50.2,87,75,17.27,broken clouds,2021-11-06 16:39:21
227,Tiarei,PF,-17.5333,-149.3333,78.82,78,79,6.69,light rain,2021-11-06 16:39:22
228,Isperih,BG,43.7167,26.8333,55.99,67,60,5.88,broken clouds,2021-11-06 16:39:22
229,Dunmore East,IE,52.1514,-6.9861,57.09,73,100,19.48,overcast clouds,2021-11-06 16:39:22
230,Phan Thiet,VN,10.9333,108.1,76.59,91,85,4.34,overcast clouds,2021-11-06 16:39:23
231,Thompson,CA,55.7435,-97.8558,30.36,93,90,5.75,light snow,2021-11-06 16:39:23
232,Arman,RU,59.7,150.1667,35.02,94,100,16.8,overcast clouds,2021-11-06 16:39:23
233,Touros,BR,-5.1989,-35.4608,88.7,62,96,13.47,overcast clouds,2021-11-06 16:39:24
234,Port Hardy,CA,50.6996,-127.4199,41.0,100,40,3.44,scattered clouds,2021-11-06 16:39:24
235,Unguia,CO,8.0434,-77.0945,85.26,74,61,2.04,broken clouds,2021-11-06 16:39:24
236,Santo Tomas,PH,14.1079,121.1414,82.65,95,46,3.6,scattered clouds,2021-11-06 16:39:25
237,Cherskiy,RU,68.75,161.3,1.44,83,72,10.56,broken clouds,2021-11-06 16:39:25
238,Ishigaki,JP,24.3448,124.1572,77.99,72,67,10.07,broken clouds,2021-11-06 16:39:25
239,Kudahuvadhoo,MV,2.6708,72.8944,82.72,74,89,13.31,overcast clouds,2021-11-06 16:39:26
240,Olavarria,AR,-36.8927,-60.3225,67.01,32,86,5.21,overcast clouds,2021-11-06 16:39:26
241,Mar Del Plata,AR,-38.0023,-57.5575,55.42,78,75,8.01,broken clouds,2021-11-06 16:36:46
242,Margate,GB,51.3813,1.3862,55.26,74,87,5.01,overcast clouds,2021-11-06 16:39:26
243,Belyy Yar,RU,53.6039,91.3903,31.89,70,40,13.42,scattered clouds,2021-11-06 16:39:27
244,Winneba,GH,5.3511,-0.6231,84.67,77,60,9.06,broken clouds,2021-11-06 16:39:27
245,Ossora,RU,59.2353,163.0719,13.42,92,44,4.79,scattered clouds,2021-11-06 16:39:27
246,Mawlaik,MM,23.6333,94.4167,69.48,90,2,0.67,clear sky,2021-11-06 16:39:28
247,Cukai,MY,4.25,103.4167,80.74,88,51,2.71,broken clouds,2021-11-06 16:39:28
248,Kambove,CD,-10.8764,26.5969,76.75,29,41,1.97,scattered clouds,2021-11-06 16:39:28
249,Oranjemund,NA,-28.55,16.4333,61.57,73,64,20.07,broken clouds,2021-11-06 16:39:29
250,Broome,US,42.2506,-75.833,50.05,58,1,1.01,clear sky,2021-11-06 16:39:29
251,Uthal,PK,25.8072,66.6219,78.17,40,0,3.18,clear sky,2021-11-06 16:39:30
252,Sur,OM,22.5667,59.5289,77.22,54,0,4.47,clear sky,2021-11-06 16:39:30
253,Upernavik,GL,72.7868,-56.1549,12.87,81,11,9.28,few clouds,2021-11-06 16:39:30
254,Nemencine,LT,54.85,25.4833,46.92,84,100,19.1,overcast clouds,2021-11-06 16:39:30
255,Yanam,IN,16.7333,82.2167,79.2,83,85,5.53,overcast clouds,2021-11-06 16:39:31
256,Santa Cruz,BO,-17.8,-63.1667,71.65,53,75,13.8,broken clouds,2021-11-06 16:39:31
257,Makarov,RU,48.6333,142.8,31.28,66,100,17.72,light snow,2021-11-06 16:39:32
258,Fairlie,GB,55.756,-4.8556,51.71,89,49,15.99,light rain,2021-11-06 16:39:32
259,Epernay,FR,49.05,3.95,48.15,70,61,6.4,broken clouds,2021-11-06 16:39:32
260,Magnolia,US,33.2671,-93.2393,55.09,42,0,2.71,clear sky,2021-11-06 16:39:33
261,Katangli,RU,51.7102,143.2326,22.5,65,98,22.08,overcast clouds,2021-11-06 16:39:33
262,Nome,US,64.5011,-165.4064,19.47,74,75,11.5,broken clouds,2021-11-06 16:39:33
263,Maracacume,BR,-2.0428,-45.9592,98.15,34,92,1.92,overcast clouds,2021-11-06 16:39:34
264,Evensk,RU,61.95,159.2333,30.99,96,100,8.55,light snow,2021-11-06 16:39:34
265,Manggar,ID,-2.8833,108.2667,80.13,82,99,2.75,overcast clouds,2021-11-06 16:39:34
266,Halifax,CA,44.6453,-63.5724,50.41,51,1,3.0,clear sky,2021-11-06 16:35:52
267,Talnakh,RU,69.4865,88.3972,11.53,94,100,14.63,light snow,2021-11-06 16:39:35
268,Hasaki,JP,35.7333,140.8333,55.8,62,100,9.35,overcast clouds,2021-11-06 16:39:36
269,San Patricio,US,28.017,-97.5169,68.85,47,0,5.84,clear sky,2021-11-06 16:39:36
270,Chandler,US,33.3062,-111.8412,82.65,27,1,3.44,clear sky,2021-11-06 16:39:37
271,Poddorye,RU,57.4695,31.1156,40.68,87,97,7.43,light rain,2021-11-06 16:39:37
272,Lahaina,US,20.8783,-156.6825,78.8,74,6,7.45,clear sky,2021-11-06 16:39:37
273,Peniche,PT,39.3558,-9.3811,62.08,55,0,14.16,clear sky,2021-11-06 16:39:38
274,Acajutla,SV,13.5928,-89.8275,86.83,51,10,0.58,clear sky,2021-11-06 16:39:38
275,Port Hedland,AU,-20.3167,118.5667,78.85,83,12,11.5,few clouds,2021-11-06 16:39:38
276,Port Elizabeth,ZA,-33.918,25.5701,65.1,82,90,8.05,overcast clouds,2021-11-06 16:39:39
277,Cabadiangan,PH,9.7531,122.4739,78.15,92,65,5.7,broken clouds,2021-11-06 16:39:39
278,Dire,ML,12.2833,-10.9667,95.43,36,21,2.55,few clouds,2021-11-06 16:39:40
279,Shubarshi,KZ,48.5872,57.1869,32.27,21,39,8.1,scattered clouds,2021-11-06 16:39:40
280,Tyret Pervaya,RU,53.6703,102.3106,20.77,77,100,3.98,overcast clouds,2021-11-06 16:39:40
281,Eenhana,NA,-17.4667,16.3333,89.08,24,99,3.67,overcast clouds,2021-11-06 16:39:41
282,Severo-Kurilsk,RU,50.6789,156.125,34.97,75,7,1.66,clear sky,2021-11-06 16:39:41
283,Dunedin,NZ,-45.8742,170.5036,52.81,81,88,7.0,overcast clouds,2021-11-06 16:39:41
284,Karpathos,GR,35.507,27.2132,67.96,88,0,8.05,clear sky,2021-11-06 16:39:42
285,Warri,NG,5.5167,5.75,78.98,88,100,5.61,overcast clouds,2021-11-06 16:39:42
286,Sterling,US,39.0062,-77.4286,56.14,49,40,1.01,scattered clouds,2021-11-06 16:39:43
287,Washington,US,47.5001,-120.5015,37.35,86,96,2.13,overcast clouds,2021-11-06 16:36:35
288,Clyde River,CA,70.4692,-68.5914,19.63,79,75,6.91,broken clouds,2021-11-06 16:39:43
289,Boende,CD,-0.2167,20.8667,78.17,72,46,2.01,scattered clouds,2021-11-06 16:39:44
290,Kapit,MY,2.0167,112.9333,73.89,99,100,1.05,overcast clouds,2021-11-06 16:39:45
291,Karakol,KG,42.4907,78.3936,18.1,63,7,7.54,clear sky,2021-11-06 16:39:45
292,Dingle,PH,10.9995,122.6711,76.96,92,99,5.75,moderate rain,2021-11-06 16:39:45
293,Poum,NC,-20.2333,164.0167,73.51,67,88,5.59,overcast clouds,2021-11-06 16:39:46
294,Arkadelphia,US,34.1209,-93.0538,55.45,54,1,3.44,clear sky,2021-11-06 16:39:46
295,Whitehorse,CA,60.7161,-135.0538,32.77,93,90,11.99,overcast clouds,2021-11-06 16:39:47
296,Banikoara,BJ,11.2985,2.4386,91.33,18,30,5.03,scattered clouds,2021-11-06 16:39:47
297,Corinto,GR,37.9407,22.9573,71.83,84,99,1.92,overcast clouds,2021-11-06 16:36:19
298,Richards Bay,ZA,-28.783,32.0377,70.45,93,53,7.16,light rain,2021-11-06 16:39:47
299,Jiangyou,CN,31.7667,104.7167,47.89,66,100,7.14,light rain,2021-11-06 16:39:48
300,Port Lincoln,AU,-34.7333,135.8667,55.69,61,100,7.58,overcast clouds,2021-11-06 16:39:48
301,Huehuetan,MX,15.0167,-92.3667,82.81,61,44,4.0,scattered clouds,2021-11-06 16:39:48
302,Mikkeli,FI,61.6886,27.2723,34.14,100,0,1.14,clear sky,2021-11-06 16:36:11
303,Hamadan,IR,34.7992,48.5146,39.85,91,100,4.14,overcast clouds,2021-11-06 16:39:49
304,Walvis Bay,NA,-22.9575,14.5053,72.55,49,54,18.41,broken clouds,2021-11-06 16:39:49
305,Iskateley,RU,67.6803,53.1512,33.89,98,100,9.4,overcast clouds,2021-11-06 16:39:50
306,Buala,SB,-8.145,159.5921,79.99,80,46,8.72,light rain,2021-11-06 16:39:50
307,Sao Domingos,BR,-13.3983,-46.3183,84.49,53,86,4.94,overcast clouds,2021-11-06 16:39:50
308,Alyangula,AU,-13.8483,136.4192,76.87,94,43,0.0,scattered clouds,2021-11-06 16:39:51
309,Mahebourg,MU,-20.4081,57.7,76.24,83,40,11.5,scattered clouds,2021-11-06 16:39:51
310,Champerico,GT,14.3,-91.9167,88.36,73,56,4.23,broken clouds,2021-11-06 16:39:51
311,Yabelo,ET,4.8833,38.0833,63.16,72,100,7.92,light rain,2021-11-06 16:39:52
312,Karagay,RU,58.2667,54.9368,34.7,97,100,16.53,snow,2021-11-06 16:39:52
313,Morden,CA,49.1919,-98.1014,51.46,57,26,5.75,scattered clouds,2021-11-06 16:37:38
314,Banda Aceh,ID,5.5577,95.3222,76.98,89,100,3.89,heavy intensity rain,2021-11-06 16:39:53
315,Glen Allen,US,37.666,-77.5064,54.41,59,90,1.01,overcast clouds,2021-11-06 16:37:36
316,Boyuibe,BO,-20.4167,-63.2833,66.11,60,100,9.19,overcast clouds,2021-11-06 16:39:53
317,Tura,IN,25.5198,90.2201,63.1,87,11,3.85,few clouds,2021-11-06 16:39:54
318,North Adams,US,42.7009,-73.1087,48.65,58,1,4.61,clear sky,2021-11-06 16:39:54
319,San Policarpo,PH,12.1791,125.5072,81.46,84,100,13.29,moderate rain,2021-11-06 16:39:54
320,Nekrasovka,RU,48.3525,135.2325,17.62,53,0,17.9,clear sky,2021-11-06 16:39:55
321,Tazovskiy,RU,67.4667,78.7,30.18,97,100,18.99,snow,2021-11-06 16:39:55
322,Bengkulu,ID,-3.8004,102.2655,76.23,92,98,9.31,overcast clouds,2021-11-06 16:39:55
323,Tucuman,AR,-26.8241,-65.2226,64.4,48,75,5.75,broken clouds,2021-11-06 16:39:56
324,Sitka,US,57.0531,-135.33,44.49,70,90,13.8,light rain,2021-11-06 16:39:56
325,Yichang,CN,30.7144,111.2847,61.7,93,100,4.21,light rain,2021-11-06 16:39:56
326,Ancud,CL,-41.8697,-73.8203,60.33,65,4,9.48,clear sky,2021-11-06 16:39:57
327,Delhi,IN,28.6667,77.2167,71.69,78,40,0.0,mist,2021-11-06 16:39:57
328,Aleksandrovskiy Zavod,RU,50.9237,117.9374,13.51,56,0,5.21,clear sky,2021-11-06 16:39:58
329,Yellowknife,CA,62.456,-114.3525,30.42,99,75,6.91,broken clouds,2021-11-06 16:38:54
330,Axim,GH,4.8699,-2.2405,81.37,76,90,7.25,overcast clouds,2021-11-06 16:39:58
331,Kita,ML,13.0349,-9.4895,95.47,26,39,1.34,scattered clouds,2021-11-06 16:39:58
332,Sergach,RU,55.5308,45.4661,45.99,81,100,15.7,overcast clouds,2021-11-06 16:39:59
333,Acapulco,MX,16.8634,-99.8901,83.52,66,91,2.95,overcast clouds,2021-11-06 16:39:59
334,Vardo,NO,70.3705,31.1107,35.06,62,100,25.05,overcast clouds,2021-11-06 16:40:00
335,Mandan,US,46.8267,-100.8896,53.98,69,1,5.75,clear sky,2021-11-06 16:35:30
336,Gornyy,RU,55.1153,83.9059,23.79,93,93,13.87,overcast clouds,2021-11-06 16:40:01
337,Buraydah,SA,26.326,43.975,77.45,22,0,10.31,clear sky,2021-11-06 16:40:02
338,Athabasca,CA,54.7169,-113.2854,34.63,51,60,9.6,broken clouds,2021-11-06 16:40:02
339,Westport,US,41.1415,-73.3579,54.28,48,1,1.01,clear sky,2021-11-06 16:36:15
340,Masingbi,SL,8.7833,-11.95,82.71,85,19,0.56,moderate rain,2021-11-06 16:40:04
341,Drayton Valley,CA,53.2168,-114.9854,35.33,50,0,6.17,clear sky,2021-11-06 16:40:04
342,Santa Maria,BR,-29.6842,-53.8069,72.7,68,90,8.05,overcast clouds,2021-11-06 16:40:05
343,Ambon,ID,-3.6954,128.1814,75.34,94,20,5.75,few clouds,2021-11-06 16:40:06
344,Half Moon Bay,US,37.4636,-122.4286,59.05,92,75,5.75,broken clouds,2021-11-06 16:40:07
345,Kizema,RU,61.113,44.8302,40.95,81,90,9.33,overcast clouds,2021-11-06 16:40:07
346,Spornoye,RU,50.8448,37.2913,44.62,81,44,7.9,scattered clouds,2021-11-06 16:40:07
347,Gamba,GA,-2.65,10.0,78.51,85,92,8.59,overcast clouds,2021-11-06 16:40:08
348,Pelym,RU,61.0108,61.9978,37.2,89,100,12.37,overcast clouds,2021-11-06 16:40:08
349,Rawson,AR,-43.3002,-65.1023,77.25,19,97,25.46,overcast clouds,2021-11-06 16:40:09
350,Tongliao,CN,43.6125,122.2653,25.43,53,100,8.5,overcast clouds,2021-11-06 16:40:09
351,Port Macquarie,AU,-31.4333,152.9167,62.56,91,92,9.22,light rain,2021-11-06 16:40:09
352,Takestan,IR,36.0696,49.6959,44.73,73,100,7.87,overcast clouds,2021-11-06 16:40:10
353,Itarema,BR,-2.9248,-39.9167,88.86,56,43,16.2,scattered clouds,2021-11-06 16:40:10
354,Sweetwater,US,25.7634,-80.3731,75.02,75,40,3.0,scattered clouds,2021-11-06 16:40:10
355,Mahina,PF,-17.5065,-149.489,78.57,69,75,3.44,broken clouds,2021-11-06 16:40:11
356,Joensuu,FI,62.6012,29.7632,36.09,89,75,5.75,broken clouds,2021-11-06 16:40:11
357,Naila,DE,50.3167,11.7,41.16,92,75,5.01,broken clouds,2021-11-06 16:40:11
358,Sao Joao Da Barra,BR,-21.6403,-41.0511,80.69,67,90,10.76,overcast clouds,2021-11-06 16:40:12
359,Biltine,TD,14.5333,20.9167,89.22,14,0,8.7,clear sky,2021-11-06 16:40:12
360,Iqaluit,CA,63.7506,-68.5145,17.33,78,75,15.01,broken clouds,2021-11-06 16:40:12
361,Rio Grande,BR,-32.035,-52.0986,66.31,66,96,17.81,overcast clouds,2021-11-06 16:38:03
362,Shirokiy,RU,49.758,129.523,12.56,81,0,5.41,clear sky,2021-11-06 16:40:13
363,Mercedes,AR,-34.6515,-59.4307,71.85,23,60,9.91,broken clouds,2021-11-06 16:40:13
364,Vyazma,RU,55.2104,34.2951,43.41,79,90,16.37,light rain,2021-11-06 16:40:14
365,Pathein,MM,16.7833,94.7333,75.81,86,79,6.04,broken clouds,2021-11-06 16:40:14
366,Kungurtug,RU,50.5994,97.5228,1.8,95,93,1.07,overcast clouds,2021-11-06 16:40:14
367,Keti Bandar,PK,24.1447,67.4497,80.35,51,24,6.06,few clouds,2021-11-06 16:40:15
368,Byron Bay,AU,-28.65,153.6167,66.87,89,92,6.98,overcast clouds,2021-11-06 16:40:15
369,Maridi,SS,4.9158,29.4742,71.78,75,68,1.54,light rain,2021-11-06 16:40:15
370,Benguela,AO,-12.5763,13.4055,79.5,73,91,4.21,overcast clouds,2021-11-06 16:40:16
371,Cibitung,ID,-7.119,107.1309,68.4,95,100,1.45,overcast clouds,2021-11-06 16:40:16
372,Te Anau,NZ,-45.4167,167.7167,44.2,89,54,0.49,broken clouds,2021-11-06 16:40:16
373,Annau,TM,37.8876,58.516,36.9,38,100,6.91,overcast clouds,2021-11-06 16:40:17
374,Edea,CM,3.8,10.1333,77.52,94,88,4.03,moderate rain,2021-11-06 16:40:17
375,Luanda,AO,-8.8368,13.2343,78.8,83,75,5.75,broken clouds,2021-11-06 16:36:58
376,Bahia Blanca,AR,-38.7196,-62.2724,69.58,22,83,2.8,broken clouds,2021-11-06 16:36:28
377,Xinzhou,CN,38.4092,112.7333,21.07,95,100,11.99,light snow,2021-11-06 16:40:18
378,Lata,PT,40.1629,-8.3327,60.06,49,0,6.55,clear sky,2021-11-06 16:40:18
379,Lavrentiya,RU,65.5833,-171.0,3.67,81,29,8.34,scattered clouds,2021-11-06 16:40:18
380,Takapau,NZ,-40.0333,176.35,54.73,99,100,2.04,overcast clouds,2021-11-06 16:40:19
381,Kyshtovka,RU,56.555,76.6271,30.92,88,99,14.9,overcast clouds,2021-11-06 16:40:19
382,Groningen,NL,53.25,6.75,52.03,76,75,5.01,broken clouds,2021-11-06 16:40:19
383,Airai,TL,-8.9266,125.4092,63.05,92,44,0.98,scattered clouds,2021-11-06 16:40:19
384,Maumere,ID,-8.6199,122.2111,80.49,83,100,2.08,overcast clouds,2021-11-06 16:40:20
385,Fomboni,KM,-12.28,43.7425,81.27,76,43,7.25,scattered clouds,2021-11-06 16:40:20
386,Prieska,ZA,-29.6641,22.7474,76.19,12,98,14.09,overcast clouds,2021-11-06 16:40:21
387,Chestermere,CA,51.0334,-113.8187,36.48,62,75,4.61,broken clouds,2021-11-06 16:40:21
388,Faya,SA,18.3851,42.4509,64.51,63,8,3.38,clear sky,2021-11-06 16:40:22
389,Nemuro,JP,43.3236,145.575,48.79,75,47,13.76,scattered clouds,2021-11-06 16:40:22
390,Tabou,CI,4.423,-7.3528,81.19,76,82,6.53,broken clouds,2021-11-06 16:40:22
391,Paka,MY,4.6374,103.4368,78.73,100,80,0.0,broken clouds,2021-11-06 16:40:23
392,General Roca,AR,-39.0333,-67.5833,68.4,16,90,20.18,overcast clouds,2021-11-06 16:40:23
393,Makakilo City,US,21.3469,-158.0858,75.56,74,20,3.44,few clouds,2021-11-06 16:39:21
394,Murray Bridge,AU,-35.1167,139.2667,60.44,81,97,11.79,overcast clouds,2021-11-06 16:40:24
395,Yangambi,CD,0.8102,24.4336,80.06,65,97,2.39,overcast clouds,2021-11-06 16:40:24
396,Flinders,AU,-34.5833,150.8552,67.28,89,57,1.01,broken clouds,2021-11-06 16:40:24
397,San Joaquin,US,37.9333,-121.3011,59.13,91,1,0.0,clear sky,2021-11-06 16:40:25
398,Kenora,CA,49.8167,-94.4337,47.59,76,20,8.05,few clouds,2021-11-06 16:39:43
399,Isiro,CD,2.7739,27.616,69.15,94,42,3.71,light rain,2021-11-06 16:40:25
400,Waingapu,ID,-9.6567,120.2641,82.31,79,100,2.73,overcast clouds,2021-11-06 16:40:26
401,Jaguaruna,BR,-28.615,-49.0256,71.87,85,97,6.4,overcast clouds,2021-11-06 16:40:26
402,Bologoye,RU,57.8799,34.1068,40.8,86,100,9.71,overcast clouds,2021-11-06 16:40:26
403,Conde,BR,-7.2597,-34.9075,87.26,58,75,11.5,broken clouds,2021-11-06 16:40:27
404,Ust-Ilimsk,RU,58.0006,102.6619,23.56,92,100,9.95,light snow,2021-11-06 16:40:27
405,Hualmay,PE,-11.0964,-77.6139,69.66,72,60,10.63,broken clouds,2021-11-06 16:40:27
406,Salinopolis,BR,-0.6136,-47.3561,86.97,62,94,9.57,overcast clouds,2021-11-06 16:40:28
407,Hambantota,LK,6.1241,81.1185,79.63,79,100,13.71,moderate rain,2021-11-06 16:40:28
408,Sharan,RU,54.8167,54.0,37.74,35,100,25.84,overcast clouds,2021-11-06 16:40:28
409,Vestmanna,FO,62.1564,-7.1664,47.32,100,90,1.14,mist,2021-11-06 16:40:29
410,Egvekinot,RU,66.3167,-179.1667,-12.51,93,54,1.43,broken clouds,2021-11-06 16:40:29
411,Barabai,ID,-2.5833,115.3833,76.59,87,85,2.01,overcast clouds,2021-11-06 16:40:30
412,Alamogordo,US,32.8995,-105.9603,74.57,31,1,5.75,clear sky,2021-11-06 16:37:53
413,Baykit,RU,61.67,96.37,12.49,99,99,1.63,overcast clouds,2021-11-06 16:40:30
414,Hormigueros,PR,18.1397,-67.1274,90.91,67,25,3.0,scattered clouds,2021-11-06 16:40:31
415,Cururupu,BR,-1.8283,-44.8683,91.38,48,64,7.87,broken clouds,2021-11-06 16:40:31
416,Pergamino,AR,-33.89,-60.5736,75.25,22,57,8.21,broken clouds,2021-11-06 16:40:31
417,Carupano,VE,10.6678,-63.2585,85.14,66,99,14.12,overcast clouds,2021-11-06 16:40:32
418,Batagay-Alyta,RU,67.8006,130.4114,-8.39,80,100,7.29,overcast clouds,2021-11-06 16:40:32
419,Shadrinsk,RU,56.0852,63.6335,36.34,58,100,16.31,overcast clouds,2021-11-06 16:40:32
420,Kasongo-Lunda,CD,-6.4667,16.8167,74.93,92,94,3.09,moderate rain,2021-11-06 16:40:33
421,Kryve Ozero,UA,47.9524,30.3493,49.51,51,99,6.17,overcast clouds,2021-11-06 16:40:33
422,Sonoita,MX,31.85,-112.8333,79.54,16,0,5.26,clear sky,2021-11-06 16:40:34
423,Elizabeth City,US,36.2946,-76.2511,61.0,82,90,20.71,overcast clouds,2021-11-06 16:40:34
424,Namatanai,PG,-3.6667,152.4333,78.58,76,59,8.97,broken clouds,2021-11-06 16:40:34
425,Ubinskoye,RU,55.3068,79.6802,29.26,96,100,14.0,overcast clouds,2021-11-06 16:40:35
426,Yuzhnouralsk,RU,54.4418,61.2536,33.64,35,100,18.1,overcast clouds,2021-11-06 16:40:35
427,Sikonge,TZ,-5.6333,32.7667,80.85,23,95,9.66,overcast clouds,2021-11-06 16:40:35
428,Belousovka,KZ,50.1339,82.5239,25.65,59,75,8.95,broken clouds,2021-11-06 16:40:36
429,Medicine Hat,CA,50.0501,-110.6683,43.21,57,20,1.01,few clouds,2021-11-06 16:38:12
430,Tupik,RU,54.4253,119.9327,13.24,50,44,2.51,scattered clouds,2021-11-06 16:40:36
431,Timmins,CA,48.4669,-81.3331,46.22,71,75,9.22,broken clouds,2021-11-06 16:40:37
432,Sena Madureira,BR,-9.0656,-68.6569,91.49,43,95,3.09,overcast clouds,2021-11-06 16:40:37
433,Vanimo,PG,-2.6741,141.3028,76.78,90,71,4.68,broken clouds,2021-11-06 16:40:37
434,Sines,PT,37.9562,-8.8698,62.29,33,0,7.0,clear sky,2021-11-06 16:40:38
435,Teguise,ES,29.0605,-13.564,68.22,56,20,24.16,few clouds,2021-11-06 16:40:38
436,Maracai,BR,-22.6106,-50.6672,92.28,38,79,8.08,broken clouds,2021-11-06 16:40:38
437,Bilibino,RU,68.0546,166.4372,-7.26,90,90,3.4,overcast clouds,2021-11-06 16:40:39
438,Plettenberg Bay,ZA,-34.0527,23.3716,60.66,69,92,3.36,overcast clouds,2021-11-06 16:40:39
439,Lakes Entrance,AU,-37.8811,147.981,60.17,94,70,8.39,broken clouds,2021-11-06 16:40:39
440,Chapais,CA,49.7834,-74.8492,38.98,77,68,12.62,broken clouds,2021-11-06 16:40:40
441,Oyama,JP,36.3,139.8,64.81,72,100,5.03,overcast clouds,2021-11-06 16:40:40
442,Mbigou,GA,-1.9005,11.906,70.05,97,100,0.6,moderate rain,2021-11-06 16:40:41
443,Salalah,OM,17.0151,54.0924,77.29,72,28,1.23,scattered clouds,2021-11-06 16:40:41
444,Harbour Breton,CA,47.4833,-55.7983,45.0,56,17,17.38,few clouds,2021-11-06 16:40:41
445,Fairbanks,US,64.8378,-147.7164,26.56,84,90,0.0,overcast clouds,2021-11-06 16:40:03
446,Oksfjord,NO,70.2396,22.3479,34.72,91,100,5.99,overcast clouds,2021-11-06 16:40:42
447,Natal,BR,-5.795,-35.2094,88.45,62,75,11.5,broken clouds,2021-11-06 16:36:58
448,Cabedelo,BR,-6.9811,-34.8339,88.47,66,69,10.67,broken clouds,2021-11-06 16:39:03
449,Pingliang,CN,35.5392,106.6861,21.43,55,100,17.47,overcast clouds,2021-11-06 16:40:43
450,Sinegorye,RU,62.0788,150.477,16.65,91,100,6.06,overcast clouds,2021-11-06 16:40:43
451,Nelson Bay,AU,-32.7167,152.15,66.09,85,78,1.01,broken clouds,2021-11-06 16:40:43
452,Kalisz,PL,51.7611,18.091,47.71,77,10,10.65,clear sky,2021-11-06 16:36:09
453,Belmonte,BR,-15.8631,-38.8828,82.4,84,77,9.8,broken clouds,2021-11-06 16:40:44
454,Brae,GB,60.3964,-1.353,51.71,92,100,29.62,overcast clouds,2021-11-06 16:40:44
455,Enshi,CN,30.3,109.4833,60.06,98,100,2.33,overcast clouds,2021-11-06 16:40:45
456,Mayo,US,38.8876,-76.5119,56.73,56,1,17.0,clear sky,2021-11-06 16:40:45
457,Pyay,MM,18.8167,95.2167,74.64,92,0,3.94,clear sky,2021-11-06 16:40:45
458,Rawah,IQ,34.4816,41.9093,70.0,33,0,6.82,clear sky,2021-11-06 16:40:46
459,Katoro,TZ,-3.0203,31.8958,68.22,77,97,5.57,overcast clouds,2021-11-06 16:40:46
460,Esil,KZ,51.9556,66.4042,30.11,25,72,12.08,broken clouds,2021-11-06 16:40:46
461,San Cristobal,VE,7.7669,-72.225,82.58,44,53,9.06,broken clouds,2021-11-06 16:40:47
462,Houma,US,29.5958,-90.7195,63.0,69,40,11.5,scattered clouds,2021-11-06 16:40:47
463,Port Shepstone,ZA,-30.7414,30.455,69.22,87,89,13.2,light rain,2021-11-06 16:40:47
464,Lasa,IT,46.6166,10.7002,38.28,74,0,2.8,clear sky,2021-11-06 16:40:48
465,Husavik,IS,66.0449,-17.3389,33.71,95,100,12.77,light snow,2021-11-06 16:40:48
466,Qarchi Gak,AF,37.04,66.7889,35.69,23,44,7.54,scattered clouds,2021-11-06 16:40:49
467,Reconquista,AR,-29.15,-59.65,68.58,59,93,9.35,overcast clouds,2021-11-06 16:40:49
468,Guerrero Negro,MX,27.9769,-114.0611,71.69,62,3,4.85,clear sky,2021-11-06 16:37:07
469,Kitaibaraki,JP,36.7833,140.75,43.9,83,73,5.08,broken clouds,2021-11-06 16:40:49
470,Puli,TW,23.9664,120.9695,73.22,66,0,4.74,clear sky,2021-11-06 16:40:50
471,Taltal,CL,-25.4,-70.4833,66.67,63,7,9.62,clear sky,2021-11-06 16:40:50
472,Berezovyy,RU,51.6667,135.7,18.75,38,3,11.48,clear sky,2021-11-06 16:40:50
473,Manado,ID,1.487,124.8455,75.97,94,40,1.14,moderate rain,2021-11-06 16:40:51
474,Mineros,BO,-17.1167,-63.2333,71.19,47,100,11.7,moderate rain,2021-11-06 16:40:51
475,Acarau,BR,-2.8856,-40.12,88.77,57,46,18.25,scattered clouds,2021-11-06 16:40:51
476,Yakovlevka,RU,44.425,133.4772,30.34,58,100,5.93,snow,2021-11-06 16:40:52
477,Las Choapas,MX,17.9333,-94.0833,77.05,73,87,9.51,overcast clouds,2021-11-06 16:40:52
478,Yeppoon,AU,-23.1333,150.7333,71.38,78,59,9.48,broken clouds,2021-11-06 16:40:52
479,Artyshta,RU,54.1222,86.2909,18.72,88,98,10.67,overcast clouds,2021-11-06 16:40:53
480,Contepec,MX,20.0167,-100.1167,54.28,31,75,6.64,broken clouds,2021-11-06 16:40:53
481,Seminole,US,28.7086,-81.2081,69.01,85,90,4.0,overcast clouds,2021-11-06 16:40:53
482,Coquimbo,CL,-29.9533,-71.3436,61.84,65,1,12.03,clear sky,2021-11-06 16:40:46
483,Mahajanga,MG,-15.7167,46.3167,80.62,83,20,9.22,few clouds,2021-11-06 16:40:54
484,Maniitsoq,GL,65.4167,-52.9,28.18,71,99,11.61,overcast clouds,2021-11-06 16:40:54
485,Muli,MV,2.9167,73.5667,82.72,73,69,13.96,broken clouds,2021-11-06 16:40:55
486,Muros,ES,42.7762,-9.0603,60.84,60,7,10.56,clear sky,2021-11-06 16:40:55
487,Burns Lake,CA,54.2331,-125.7533,24.22,78,85,0.56,overcast clouds,2021-11-06 16:40:56
488,Zastron,ZA,-30.3023,27.084,67.84,19,86,8.61,overcast clouds,2021-11-06 16:40:56
489,Nantucket,US,41.2835,-70.0995,53.71,49,1,5.75,clear sky,2021-11-06 16:36:54
490,Mogadishu,SO,2.0371,45.3438,79.54,76,38,14.0,scattered clouds,2021-11-06 16:40:56
491,Harper,LR,4.375,-7.7169,81.16,76,99,6.8,overcast clouds,2021-11-06 16:40:57
492,Alekseyevsk,RU,57.8406,108.3492,22.98,93,100,12.59,light snow,2021-11-06 16:40:57
493,Bethel,US,41.3712,-73.414,52.72,53,1,1.01,clear sky,2021-11-06 16:40:57
494,Bonavista,CA,48.6499,-53.1147,42.12,65,72,22.26,broken clouds,2021-11-06 16:40:58
495,Eyl,SO,7.9803,49.8164,78.71,65,69,9.91,broken clouds,2021-11-06 16:40:58
496,Kabompo,ZM,-13.5927,24.2008,83.57,20,90,5.26,overcast clouds,2021-11-06 16:40:58
497,Jackson,US,42.4165,-122.8345,48.45,92,75,3.44,broken clouds,2021-11-06 16:40:59
498,Asfi,MA,32.2994,-9.2372,65.64,51,0,27.27,clear sky,2021-11-06 16:40:59
499,Gerash,IR,27.6652,54.1371,71.74,52,68,3.06,broken clouds,2021-11-06 16:40:59
500,Magadan,RU,59.5667,150.8,34.54,92,100,14.94,overcast clouds,2021-11-06 16:41:00
501,Sakaiminato,JP,35.55,133.2333,49.98,100,20,5.75,few clouds,2021-11-06 16:41:00
502,Socorro,US,31.6546,-106.3033,70.88,32,20,3.44,few clouds,2021-11-06 16:41:00
503,Sayla,IN,22.55,71.4667,76.24,28,90,7.09,overcast clouds,2021-11-06 16:41:01
504,Hita,JP,33.3167,130.9333,61.14,93,65,4.74,broken clouds,2021-11-06 16:41:01
505,Amazar,RU,53.858,120.875,14.36,52,39,0.85,scattered clouds,2021-11-06 16:41:02
506,Ciudad Bolivar,VE,8.1222,-63.5497,91.33,46,100,10.67,overcast clouds,2021-11-06 16:41:02
507,Honningsvag,NO,70.9821,25.9704,35.35,64,75,20.71,broken clouds,2021-11-06 16:41:03
508,Allapalli,IN,19.4167,80.0667,65.75,60,16,2.01,few clouds,2021-11-06 16:41:03
509,Opuwo,NA,-18.0607,13.84,89.96,16,100,11.32,overcast clouds,2021-11-06 16:41:03
510,Qiongshan,CN,20.0058,110.3542,75.18,94,0,4.47,clear sky,2021-11-06 16:41:04
511,Kumo,NG,10.0447,11.2122,87.21,24,49,3.18,scattered clouds,2021-11-06 16:41:04
512,Baruun-Urt,MN,46.6806,113.2792,10.76,40,41,8.86,scattered clouds,2021-11-06 16:41:04
513,Guasdualito,VE,7.2424,-70.7324,88.56,54,65,5.91,broken clouds,2021-11-06 16:41:05
514,Kindu,CD,-2.95,25.95,71.83,92,92,8.1,light rain,2021-11-06 16:41:05
515,Sao Felix Do Xingu,BR,-6.6447,-51.995,86.63,61,70,4.14,broken clouds,2021-11-06 16:41:05
516,Tirodi,IN,21.6833,79.7,64.51,54,40,5.28,scattered clouds,2021-11-06 16:41:06
517,Shelburne,CA,44.0787,-80.2041,48.65,61,80,13.24,broken clouds,2021-11-06 16:41:06
518,Mehamn,NO,71.0357,27.8492,35.78,62,100,17.9,overcast clouds,2021-11-06 16:41:07
519,Yorkton,CA,51.2167,-102.4677,37.24,75,20,9.22,few clouds,2021-11-06 16:41:07
520,Tecoanapa,MX,16.5167,-98.75,84.43,63,73,2.01,broken clouds,2021-11-06 16:41:07
521,Kaputa,ZM,-8.4689,29.6619,81.37,38,46,5.64,scattered clouds,2021-11-06 16:41:08
522,Aleksandrovskoye,RU,44.7142,43.0008,44.74,82,64,5.08,broken clouds,2021-11-06 16:41:08
523,San Carlos De Bariloche,AR,-41.1456,-71.3082,67.75,14,0,11.5,clear sky,2021-11-06 16:41:08
524,Lorengau,PG,-2.0226,147.2712,81.72,78,59,8.97,broken clouds,2021-11-06 16:41:09
525,Camocim,BR,-2.9022,-40.8411,87.46,64,36,16.24,scattered clouds,2021-11-06 16:41:09
526,Saint-Pierre,RE,-21.3393,55.4781,74.88,78,0,17.27,clear sky,2021-11-06 16:41:09
527,Andros Town,BS,24.7,-77.7667,75.16,73,99,17.38,overcast clouds,2021-11-06 16:41:10
528,Nueva Gorgona,PA,8.55,-79.8667,90.3,51,95,1.74,overcast clouds,2021-11-06 16:41:10
529,Santa Marinella,IT,42.0345,11.8536,64.44,89,100,12.33,light rain,2021-11-06 16:41:10
530,Mopipi,BW,-21.1833,24.8833,90.81,25,42,12.8,scattered clouds,2021-11-06 16:41:11
531,Tual,ID,-5.6667,132.75,83.48,73,94,3.87,overcast clouds,2021-11-06 16:41:11
532,Sumbe,AO,-11.2061,13.8437,76.23,87,88,11.86,light rain,2021-11-06 16:41:12
533,Troitsko-Pechorsk,RU,62.7084,56.1964,40.21,95,100,9.48,overcast clouds,2021-11-06 16:41:12
534,Gorey,IE,52.6747,-6.2925,55.71,82,100,17.09,overcast clouds,2021-11-06 16:41:12
535,Belaya Gora,RU,68.5333,146.4167,11.08,94,95,12.82,light snow,2021-11-06 16:41:13
536,Enterprise,US,36.0252,-115.2419,74.48,33,20,1.99,few clouds,2021-11-06 16:41:13
537,Skibbereen,IE,51.55,-9.2667,57.0,85,100,17.02,overcast clouds,2021-11-06 16:41:13
538,Jardim,BR,-21.4803,-56.1381,70.27,93,100,7.49,overcast clouds,2021-11-06 16:41:14
539,Sheboygan,US,43.7333,-87.9334,56.34,60,1,5.99,clear sky,2021-11-06 16:41:14
540,Marzuq,YE,14.4,46.4667,73.67,21,87,3.13,overcast clouds,2021-11-06 16:41:14
541,Galesong,ID,-5.3166,119.3661,77.02,83,100,2.39,overcast clouds,2021-11-06 16:41:15
542,Deception Bay,AU,-27.2,153.0333,70.16,93,84,3.02,light rain,2021-11-06 16:41:15
543,Dandong,CN,40.1292,124.3947,43.72,74,68,7.99,broken clouds,2021-11-06 16:41:16
544,Kapuskasing,CA,49.4169,-82.4331,46.49,76,90,12.66,overcast clouds,2021-11-06 16:41:16
545,Kamuli,UG,0.9472,33.1197,67.05,82,64,3.47,broken clouds,2021-11-06 16:41:16
546,Mattru,SL,7.6244,-11.8332,80.53,88,71,4.25,light rain,2021-11-06 16:41:17
547,Odienne,CI,9.51,-7.5692,87.58,49,31,1.61,scattered clouds,2021-11-06 16:41:17
548,Yar,RU,58.249,52.1026,40.08,94,100,17.9,moderate rain,2021-11-06 16:41:17
549,Praya,CV,14.9215,-23.5087,86.54,51,0,18.41,clear sky,2021-11-06 16:41:18
550,Hervey Bay,AU,-25.2986,152.8535,72.03,79,57,9.13,broken clouds,2021-11-06 16:41:18
551,Nanakuli,US,21.3906,-158.1547,76.98,75,20,3.44,few clouds,2021-11-06 16:41:18
552,Troitskoye,RU,52.9821,84.6757,22.98,89,96,11.45,overcast clouds,2021-11-06 16:41:19
553,Riyadh,SA,24.6877,46.7219,78.94,25,0,7.67,clear sky,2021-11-06 16:39:54
554,Flin Flon,CA,54.7682,-101.865,37.24,93,90,4.61,overcast clouds,2021-11-06 16:41:19
555,Stokmarknes,NO,68.5646,14.9108,37.38,100,40,6.91,scattered clouds,2021-11-06 16:41:19
556,Valdivia,CL,-39.8142,-73.2459,62.69,47,0,6.82,clear sky,2021-11-06 16:41:20
557,Ola,RU,59.5833,151.2833,35.15,91,100,12.24,overcast clouds,2021-11-06 16:41:20
558,Amga,RU,60.8953,131.9608,7.27,97,98,4.36,overcast clouds,2021-11-06 16:41:21
559,Boca Do Acre,BR,-8.7522,-67.3978,94.3,39,99,3.87,overcast clouds,2021-11-06 16:41:21
560,Ntchisi,MW,-13.5278,33.9149,74.37,28,1,1.28,clear sky,2021-11-06 16:41:21
561,Ayutla,MX,20.1167,-104.3333,75.2,47,49,4.76,scattered clouds,2021-11-06 16:41:22
562,Khromtau,KZ,50.2503,58.4347,28.85,24,45,10.58,scattered clouds,2021-11-06 16:41:22
563,Kusti,SD,13.1629,32.6635,93.51,20,70,7.09,broken clouds,2021-11-06 16:41:22
564,Provost,CA,52.3501,-110.2683,36.82,60,22,10.51,few clouds,2021-11-06 16:41:23
565,Hanmer Springs,NZ,-42.5167,172.8167,47.61,92,40,3.51,scattered clouds,2021-11-06 16:41:23
566,Pitimbu,BR,-7.4706,-34.8086,88.39,66,52,10.65,broken clouds,2021-11-06 16:41:23
567,Lyndon,US,38.2567,-85.6016,57.45,48,1,1.01,clear sky,2021-11-06 16:41:24
568,Illapel,CL,-31.6308,-71.1653,77.83,29,0,9.62,clear sky,2021-11-06 16:41:24
569,Novomykolayivka,UA,47.9781,35.9102,50.25,72,100,12.19,overcast clouds,2021-11-06 16:41:24
570,Kargasok,RU,59.0556,80.8572,31.39,90,100,16.42,overcast clouds,2021-11-06 16:41:25
571,Bartica,GY,6.4,-58.6167,77.32,92,100,4.38,moderate rain,2021-11-06 16:41:25
572,Fochville,ZA,-26.4886,27.4939,74.79,36,80,10.83,broken clouds,2021-11-06 16:41:26
573,Saint-Georges,GD,12.0564,-61.7485,87.48,66,20,19.57,few clouds,2021-11-06 16:41:26
574,Sambava,MG,-14.2667,50.1667,76.24,84,68,11.34,broken clouds,2021-11-06 16:41:26
575,Kondinskoye,RU,59.6481,67.41,36.25,83,100,17.27,overcast clouds,2021-11-06 16:41:27
576,Werda,BW,-25.2667,23.2833,89.26,12,25,9.35,scattered clouds,2021-11-06 16:41:27
577,Jimenez,MX,28.3333,-105.4,73.2,37,16,5.95,few clouds,2021-11-06 16:41:28
578,Hlukhiv,UA,51.6782,33.9162,42.31,79,29,9.26,scattered clouds,2021-11-06 16:41:28
579,Yumen,CN,40.2833,97.2,13.78,37,0,10.07,clear sky,2021-11-06 16:41:29
580,Inuvik,CA,68.3499,-133.7218,18.61,96,75,6.91,broken clouds,2021-11-06 16:41:29
581,Ust-Omchug,RU,61.15,149.6333,14.2,96,100,4.79,overcast clouds,2021-11-06 16:41:29
582,Konya,TR,38.1667,32.5,51.28,36,8,5.86,clear sky,2021-11-06 16:41:30
583,Marsh Harbour,BS,26.5412,-77.0636,81.32,75,100,20.36,overcast clouds,2021-11-06 16:41:30
584,Jiazi,CN,22.8779,116.067,75.63,85,3,6.26,light rain,2021-11-06 16:41:30
585,Okhotsk,RU,59.3833,143.3,19.83,95,100,22.95,snow,2021-11-06 16:41:31
586,Kochki,RU,54.3358,80.4806,27.34,95,99,12.59,overcast clouds,2021-11-06 16:41:31
587,Pacific Grove,US,36.6177,-121.9166,60.51,82,1,1.01,clear sky,2021-11-06 16:40:41
588,Piacabucu,BR,-10.4056,-36.4344,85.21,64,82,13.31,broken clouds,2021-11-06 16:41:31
589,Caloundra,AU,-26.8,153.1333,69.64,90,96,5.7,overcast clouds,2021-11-06 16:41:32
590,Mount Vernon,US,40.9126,-73.8371,55.0,49,40,5.01,scattered clouds,2021-11-06 16:39:12
591,Kijang,KR,35.2442,129.2139,55.13,66,57,16.22,broken clouds,2021-11-06 16:41:32
592,Kendari,ID,-3.945,122.4989,76.01,94,94,2.75,overcast clouds,2021-11-06 16:41:33
593,Carutapera,BR,-1.195,-46.02,88.74,56,70,8.9,broken clouds,2021-11-06 16:41:33
594,Majene,ID,-3.5403,118.9707,78.22,89,100,2.1,overcast clouds,2021-11-06 16:41:33
595,Kedrovyy,RU,56.1667,91.8167,25.21,93,100,10.8,overcast clouds,2021-11-06 16:41:34
596,Chiang Rai,TH,19.9167,99.9167,75.18,94,20,5.75,few clouds,2021-11-06 16:41:34
597,Slave Lake,CA,55.2834,-114.769,35.58,64,1,12.66,clear sky,2021-11-06 16:41:34
598,Lincoln,US,40.8,-96.667,57.99,73,1,4.0,clear sky,2021-11-06 16:40:08
599,Ha Tinh,VN,18.3333,105.9,75.06,95,21,1.66,few clouds,2021-11-06 16:41:35
600,Monte Escobedo,MX,22.3,-103.5833,64.27,34,1,4.74,clear sky,2021-11-06 16:41:35
601,Najran,SA,17.4924,44.1277,74.05,21,0,4.23,clear sky,2021-11-06 16:41:36
602,Lumberton,US,34.6182,-79.0086,54.34,58,100,18.81,overcast clouds,2021-11-06 16:41:36
603,San Quintin,MX,30.4833,-115.95,68.09,71,0,7.99,clear sky,2021-11-06 16:41:36
604,Marmashen,AM,40.8349,43.7779,43.09,70,0,3.44,clear sky,2021-11-06 16:41:36
605,Kupang,ID,-10.1667,123.5833,80.76,82,30,4.25,scattered clouds,2021-11-06 16:41:37
606,Shahreza,IR,32.0339,51.8794,44.58,65,90,4.59,overcast clouds,2021-11-06 16:41:37
607,Dudinka,RU,69.4058,86.1778,15.22,93,100,24.54,light snow,2021-11-06 16:41:38
608,Honiara,SB,-9.4333,159.95,76.64,88,12,4.61,few clouds,2021-11-06 16:37:17
609,Murgab,TM,37.4966,61.9714,37.27,60,40,0.0,scattered clouds,2021-11-06 16:41:38
610,Labuhan,ID,-6.8844,112.2051,83.01,72,93,3.78,overcast clouds,2021-11-06 16:41:39
611,Cheremshan,RU,54.6667,51.5,39.25,51,100,24.54,light rain,2021-11-06 16:41:39
612,Camapua,BR,-19.5314,-54.0439,82.13,66,57,10.42,broken clouds,2021-11-06 16:41:39
613,Greystones,IE,53.1408,-6.0631,54.46,78,100,17.78,overcast clouds,2021-11-06 16:41:40
614,Bayan,CN,46.0833,127.4,24.26,33,100,4.65,overcast clouds,2021-11-06 16:41:40
615,Bataipora,BR,-22.2953,-53.2711,90.46,44,84,3.24,broken clouds,2021-11-06 16:41:41
616,Taquaritinga Do Norte,BR,-7.9031,-36.0442,91.18,27,57,10.36,broken clouds,2021-11-06 16:41:41
617,Storsteinnes,NO,69.2408,19.2344,35.6,96,100,3.58,overcast clouds,2021-11-06 16:41:41
618,Boyolangu,ID,-8.1181,111.8935,77.56,88,96,1.5,overcast clouds,2021-11-06 16:41:42
619,Quelimane,MZ,-17.8786,36.8883,75.63,85,11,6.2,few clouds,2021-11-06 16:41:42
620,Roma,US,43.2128,-75.4557,52.86,62,1,4.61,clear sky,2021-11-06 16:37:41
621,Bac Lieu,VN,9.285,105.7244,79.52,87,100,7.81,overcast clouds,2021-11-06 16:41:42
622,Tchaourou,BJ,8.8865,2.5975,86.29,43,57,2.98,broken clouds,2021-11-06 16:41:43
623,Sola,VU,-13.8833,167.55,80.13,75,93,9.86,overcast clouds,2021-11-06 16:41:43
624,Buchanan,LR,5.8808,-10.0467,76.96,76,83,8.7,light rain,2021-11-06 16:41:43
625,Northam,GB,51.0333,-4.2167,55.02,94,72,25.59,broken clouds,2021-11-06 16:41:44
626,Damghan,IR,36.1683,54.348,48.83,56,100,2.35,overcast clouds,2021-11-06 16:41:44
627,Beeville,US,28.4008,-97.7483,67.55,55,1,6.91,clear sky,2021-11-06 16:41:44
628,Liancheng,CN,24.0519,105.075,62.22,97,13,3.2,few clouds,2021-11-06 16:41:45
629,Roald,NO,62.5833,6.1333,42.33,65,0,11.5,clear sky,2021-11-06 16:41:45
630,Cajamarca,PE,-7.1638,-78.5003,60.87,72,75,1.14,light rain,2021-11-06 16:41:45
631,Bousso,TD,10.4795,16.7117,92.17,30,64,3.53,broken clouds,2021-11-06 16:41:46
632,Cape Girardeau,US,37.3834,-89.7168,55.58,52,0,1.99,clear sky,2021-11-06 16:41:46
633,Bani,DO,18.2833,-70.3333,86.76,59,27,9.6,scattered clouds,2021-11-06 16:41:46
634,Marsabit,KE,2.3284,37.9899,77.65,40,39,13.65,scattered clouds,2021-11-06 16:41:47
635,Bacolod,PH,10.6667,122.95,79.07,86,99,7.29,light rain,2021-11-06 16:41:47
636,Cherepanovo,RU,54.2222,83.381,20.66,95,98,12.77,overcast clouds,2021-11-06 16:41:47
637,Dickson,US,36.077,-87.3878,57.13,68,40,3.0,scattered clouds,2021-11-06 16:41:48
638,Hami,CN,42.8,93.45,25.03,40,0,4.41,clear sky,2021-11-06 16:41:48
639,Litovko,RU,49.2361,135.1742,20.07,38,1,24.05,clear sky,2021-11-06 16:41:48
640,Klyuchi,RU,52.2667,79.1667,25.21,93,97,8.63,overcast clouds,2021-11-06 16:41:49
641,Ucluelet,CA,48.9329,-125.5528,41.31,92,100,5.99,overcast clouds,2021-11-06 16:39:23
642,Tubuala,PA,9.5167,-79.0333,86.11,74,88,3.69,overcast clouds,2021-11-06 16:41:49
643,Cuamba,MZ,-14.8031,36.5372,89.24,17,60,7.76,broken clouds,2021-11-06 16:41:49
644,Sorland,NO,67.667,12.6934,40.86,73,100,27.0,light rain,2021-11-06 16:41:50
645,Masvingo,ZW,-20.0637,30.8277,87.24,21,69,8.99,broken clouds,2021-11-06 16:41:50
646,Kibala,TD,9.1104,18.3463,87.75,58,20,6.91,thunderstorm,2021-11-06 16:41:50
647,North Bend,US,43.4065,-124.2243,49.86,94,20,8.05,few clouds,2021-11-06 16:41:51
648,Ormstown,CA,45.1334,-73.9992,50.85,50,11,10.49,few clouds,2021-11-06 16:41:51
649,Tessalit,ML,20.1986,1.0114,92.77,11,9,6.2,clear sky,2021-11-06 16:41:52
650,Lesozavodsk,RU,45.4794,133.4244,26.76,33,100,9.37,overcast clouds,2021-11-06 16:41:52
651,Livingston,GB,55.9029,-3.5226,50.36,79,40,24.16,scattered clouds,2021-11-06 16:39:29
652,Mitsamiouli,KM,-11.3847,43.2844,82.69,78,20,2.3,few clouds,2021-11-06 16:41:52
653,Petropavlovsk-Kamchatskiy,RU,53.0452,158.6483,28.99,59,75,8.95,broken clouds,2021-11-06 16:41:53
654,Tocopilla,CL,-22.092,-70.1979,69.26,64,12,10.18,few clouds,2021-11-06 16:41:53
655,Pocsaj,HU,47.2833,21.8167,50.41,67,100,4.09,overcast clouds,2021-11-06 16:41:53
656,Manokwari,ID,-0.8667,134.0833,78.67,80,100,4.5,light rain,2021-11-06 16:41:54
657,Kalakamati,BW,-20.5929,27.3121,79.59,36,100,5.46,overcast clouds,2021-11-06 16:41:54
658,Maragogi,BR,-9.0122,-35.2225,84.43,68,28,16.24,scattered clouds,2021-11-06 16:41:54
659,Torrington,US,41.8007,-73.1212,51.67,53,0,1.01,clear sky,2021-11-06 16:41:55
660,Churapcha,RU,62.0025,132.4325,-3.89,100,97,2.71,overcast clouds,2021-11-06 16:41:55
661,Ulaangom,MN,49.9811,92.0667,13.91,69,100,2.71,overcast clouds,2021-11-06 16:41:55
662,Talcahuano,CL,-36.7167,-73.1167,55.08,88,90,5.75,overcast clouds,2021-11-06 16:41:56
663,Matagami,CA,49.7502,-77.6328,44.71,76,75,13.8,broken clouds,2021-11-06 16:41:56
664,Ketchikan,US,55.3422,-131.6461,41.47,93,90,5.75,light rain,2021-11-06 16:41:56
665,Simbahan,PH,6.3032,120.5836,83.82,74,30,7.34,scattered clouds,2021-11-06 16:41:57
666,Los Llanos De Aridane,ES,28.6585,-17.9182,67.75,67,75,11.01,broken clouds,2021-11-06 16:41:57
667,Old Shinyanga,TZ,-3.55,33.4,82.69,17,92,4.99,overcast clouds,2021-11-06 16:41:57
668,Fortuna Foothills,US,32.6578,-114.4119,85.21,25,1,3.44,clear sky,2021-11-06 16:41:58
669,Hakkari,TR,37.5833,44.1667,42.53,68,0,5.95,clear sky,2021-11-06 16:40:41
670,Pangnirtung,CA,66.1451,-65.7125,24.8,46,75,12.66,broken clouds,2021-11-06 16:41:58
671,Teya,RU,60.3778,92.6267,24.06,91,98,9.31,overcast clouds,2021-11-06 16:41:59
672,Chifeng,CN,42.2683,118.9636,19.04,93,100,5.91,light snow,2021-11-06 16:39:10
673,Chake Chake,TZ,-5.2459,39.7666,77.54,81,40,8.37,scattered clouds,2021-11-06 16:41:59
674,Cortes,ES,41.9395,-1.4396,51.85,56,2,29.95,clear sky,2021-11-06 16:41:59
675,Bosaso,SO,11.2842,49.1816,78.78,63,22,1.79,few clouds,2021-11-06 16:42:00
676,Shar,KZ,49.5886,81.0453,19.26,80,99,14.32,overcast clouds,2021-11-06 16:42:00
677,Puerto Escondido,MX,15.85,-97.0667,85.03,65,1,5.75,clear sky,2021-11-06 16:42:01
678,Grand Gaube,MU,-20.0064,57.6608,76.37,76,34,3.0,scattered clouds,2021-11-06 16:42:01
679,Akyab,MM,20.15,92.9,75.2,75,1,9.26,clear sky,2021-11-06 16:42:01
